[{"name":"Burke","id":"17","locations":[{"name":"Burke County Courthouse","address1":"602 North Liberty Street, Room 104","city":"Waynesboro","zip":"30830-1417","coordinates":[-82.0156154,33.090539],"datesSimplified":"04/06-04/13 M-F 9am - 5pm"}]},{"name":"Cobb","id":"33","locations":[{"name":"MAIN OFFICE","address1":"736 Whitlock Ave. NW","city":"Marietta","zip":"30064-4663","coordinates":[-84.5739717,33.9535641],"datesSimplified":"03/27-04/07 M-F 8am - 5pm<br>04/08 Sa 9am - 4pm<br>04/10-04/14 M-F 8am - 5pm"},{"name":"EAST, East Cobb Government Svcs. Center","address1":"4400 Lower Roswell Rd.","city":"Marietta","zip":"30068-4233","coordinates":[-84.4228727,33.9632547],"datesSimplified":"04/08 Sa 9am - 4pm<br>04/10-04/14 M-F 9am - 6pm"}]},{"name":"DeKalb","id":"44","locations":[{"name":"Memorial Drive Complex, Suite 300","address1":"4380 Memorial Drive","city":"Decatur","zip":"30032","coordinates":[-84.2467355,33.777961],"datesSimplified":"03/27-04/07 M-F 8am - 5pm<br>04/08 Sa 9am - 4pm<br>04/10-04/14 M-F 8am - 5pm"},{"name":"Dunwoody Library","address1":"5339 Chamblee Dunwoody Road","city":"Dunwoody","zip":"30338","coordinates":[-84.332176,33.9447802],"datesSimplified":"04/10-04/14 M-F 8am - 5pm"}]},{"name":"Fulton","id":"60","locations":[{"name":"East Roswell Library","address1":"2301 Holcomb Bridge Road","city":"Roswell","zip":"30076","coordinates":[-84.2935563,34.0033506],"datesSimplified":"03/27-04/14 M-F 8:30am - 6pm"},{"name":"Milton Library","address1":"855 Mayfield Road","city":"Milton","zip":"30009","coordinates":[-84.3367995,34.0903658],"datesSimplified":"03/27-04/14 M-F 8:30am - 6pm"},{"name":"North Fulton Service Center","address1":"7741 Roswell Road","city":"Sandy Springs","zip":"30350","coordinates":[-84.3627312,33.9657187],"datesSimplified":"03/27-04/14 M-Sa 8:30am - 6pm"},{"name":"Robert F. Ocee Library","address1":"5090 Abbotts Bridge Road","city":"Johns Creek","zip":"30005","coordinates":[-84.2095857,34.0645546],"datesSimplified":"03/27-04/14 M-F 8:30am - 6pm"}]},{"name":"Monroe","id":"102","locations":[{"name":"Monroe County Board of Registration","address1":"38 West Main Street","address2":"P.O. Box 1245","city":"Forsyth","zip":"31029","coordinates":[-83.9396829,33.0339594],"datesSimplified":"04/06-04/13 M-F 8:30am - 4:30pm"}]}]