[
  {
    "name": "Appling",
    "id": "1",
    "locations": [
      {
        "name": "Appling County Board of Registration",
        "address1": "69 Tippins Street, Suite 205",
        "address2": "912-367-8113",
        "city": "Baxley",
        "zip": "31513",
        "coordinates": [
          -82.3497308,
          31.7778891
        ]
      }
    ]
  },
  {
    "name": "Atkinson",
    "id": "2",
    "locations": [
      {
        "name": "Atkinson County Voting Precinct",
        "address1": "636 Austin Avenue East",
        "city": "Pearson",
        "zip": "31642",
        "coordinates": [
          -82.8448968,
          31.2933993
        ]
      }
    ]
  },
  {
    "name": "Bacon",
    "id": "3",
    "locations": [
      {
        "name": "",
        "address1": "232 West 12th Street",
        "city": "Alma",
        "zip": "31510",
        "coordinates": [
          -82.4656274,
          31.5416871
        ]
      }
    ]
  },
  {
    "name": "Baker",
    "id": "4",
    "locations": [
      {
        "name": "Baker County Courthouse",
        "address1": "167 Baker Place,Baker Co. Elections Office",
        "city": "Newton",
        "zip": "39870",
        "coordinates": [
          -84.3416371,
          31.3171775
        ]
      }
    ]
  },
  {
    "name": "Baldwin",
    "id": "5",
    "locations": [
      {
        "name": "",
        "address1": "121 N Wilkinson St",
        "address2": "Ste 104",
        "city": "Milledgeville",
        "zip": "31061",
        "coordinates": [
          -83.2286105,
          33.0813952
        ]
      }
    ]
  },
  {
    "name": "Banks",
    "id": "6",
    "locations": [
      {
        "name": "Banks County Registrar's Office",
        "address1": "226 Candler Street",
        "city": "Homer",
        "zip": "",
        "coordinates": [
          -83.4978017,
          34.3354927
        ]
      }
    ]
  },
  {
    "name": "Barrow",
    "id": "7",
    "locations": [
      {
        "name": "Barrow County Elections Office",
        "address1": "233 East Broad Street",
        "address2": "Ground Floor",
        "city": "Winder",
        "zip": "30680",
        "coordinates": [
          -83.711603,
          33.9976673
        ]
      }
    ]
  },
  {
    "name": "Bartow",
    "id": "8",
    "locations": [
      {
        "name": "Adairsville Interim City Hall",
        "address1": "101 Public Square",
        "city": "Adairsville",
        "zip": "30103",
        "coordinates": [
      -84.9349219,
      34.367663
        ]
      },
      {
        "name": "Bartow County Voter Registration Office",
        "address1": "1300 Joe Frank Harris Pkwy",
        "city": "Cartersville",
        "zip": "30120",
        "coordinates": [
          -84.814253,
          34.206239
        ]
      },
      {
        "name": "Cartersville Civic Center",
        "address1": "435 West Main Street",
        "city": "Cartersville",
        "zip": "",
        "coordinates": [
          -84.8066257,
          34.1634687
        ]
      },
      {
        "name": "Emerson City Hall",
        "address1": "700 HWY 293",
        "city": "Emerson",
        "zip": "30137",
        "coordinates": [
          -84.7571771,
          34.1266823
        ]
      },
      {
        "name": "Euharlee City Hall",
        "address1": "30 Burge's Mill Rd",
        "city": "Euharlee",
        "zip": "30145",
        "coordinates": [
          -84.9358691,
          34.146235
        ]
      },
      {
        "name": "Kingston City Hall",
        "address1": "30 West Main St",
        "city": "Kingston",
        "zip": "30145",
        "coordinates": [
          -84.945134,
          34.235353
        ]
      }
    ]
  },
  {
    "name": "Ben Hill",
    "id": "9",
    "locations": [
      {
        "name": "Ben Hill Elections Office",
        "address1": "115 W Pine Street ",
        "city": "Fitzgerald",
        "zip": "31750",
        "coordinates": [
          -83.2574017,
          31.7139
        ]
      }
    ]
  },
  {
    "name": "Berrien",
    "id": "10",
    "locations": [
      {
        "name": "Berrien County Board of Elections and Registration",
        "address1": "201 N. Davis Street",
        "city": "Nashville",
        "zip": "31639",
        "coordinates": [
          -83.2516778,
          31.2084593
        ]
      }
    ]
  },
  {
    "name": "Bibb",
    "id": "11",
    "locations": [
      {
        "name": "Macon-Bibb County Board of Elections",
        "address1": "2525 Pio Nono Avenue",
        "city": "Macon",
        "zip": "31206",
        "coordinates": [
          -83.6651026,
          32.8152413
        ]
      },
      {
        "name": "Terminal Station",
        "address1": "200 Cherry St.  Suite 203",
        "city": "Macon",
        "zip": "31201",
        "coordinates": [
          -83.6241179,
          32.8335971
        ]
      }
    ]
  },
  {
    "name": "Bleckley",
    "id": "12",
    "locations": [
      {
        "name": "Voter Registrar's Office",
        "address1": "112 North Second Street, 2nd floor",
        "city": "Cochran",
        "zip": "31014",
        "coordinates": [
          -83.3537287,
          32.395138
        ]
      }
    ]
  },
  {
    "name": "Brantley",
    "id": "13",
    "locations": [
      {
        "name": "Board of Elections and Registration Office",
        "address1": "10305 N. Main St.",
        "address2": "Suite 400",
        "city": "Nahunta",
        "zip": "31553",
        "coordinates": [
          -81.9805678,
          31.2082003
        ]
      }
    ]
  },
  {
    "name": "Brooks",
    "id": "14",
    "locations": [
      {
        "name": "elections office",
        "address1": "610 S Highland Rd",
        "city": "Quitman",
        "zip": "31643",
        "coordinates": [
          -83.5551648,
          30.7794837
        ]
      }
    ]
  },
  {
    "name": "Bryan",
    "id": "15",
    "locations": [
      {
        "name": "Bryan County Courthouse",
        "address1": "Commissioners Meeting Room",
        "address2": "42 N. Courthouse St",
        "city": "Pembroke",
        "zip": "31321",
        "coordinates": [
          -81.6211174,
          32.1338181
        ]
      },
      {
        "name": "Harn Community Center",
        "address1": "91 Lanier Street",
        "city": "Pembroke",
        "zip": "31321",
        "coordinates": [
          -81.6175615,
          32.2317658
        ]
      },
      {
        "name": "Bryan County Administration Bldg",
        "address1": "66 Capt. Matthew Freeman Dr.",
        "city": "Richmond Hill",
        "zip": "31324",
        "coordinates": [
          -81.2602868,
          31.8811072
        ]
      },
      {
        "name": "J F Gregory - The John Stevens Wetland Center",
        "address1": "600 Cedar Street",
        "city": "Richmond Hill",
        "zip": "31324",
        "coordinates": [
          -81.3080201,
          31.9468896
        ]
      }
    ]
  },
  {
    "name": "Bulloch",
    "id": "16",
    "locations": [
      {
        "name": "Bulloch County Annex",
        "address1": "113 North Main Street, Ste 201",
        "city": "Statesboro",
        "zip": "30458",
        "coordinates": [
          -81.7834427,
          32.4523013
        ]
      },{
        "name": "Georgia Southern University",
        "address1": "Russell Union",
        "address2": "85 GA Avenue Rm 1042",
        "city": "Statesboro",
        "zip": "30458",
        "coordinates": [
          -81.7798721,
          32.424976
        ]
      },{
        "name": "Honey Bowen",
        "address1": "1 Max Lockwood Drive",
        "city": "Statesboro",
        "zip": "30458",
        "coordinates": [
          -81.7834251,
          32.4375461
        ]
      }
    ]
  },
  {
    "name": "Burke",
    "id": "17",
    "locations": [
      {
        "name": "Burke County Courthouse",
        "address1": "602 North Liberty Street, Room 104",
        "city": "Waynesboro",
        "zip": "30830-1417",
        "coordinates": [
          -82.0156154,
          33.090539
        ]
      }
    ]
  },
  {
    "name": "Butts",
    "id": "18",
    "locations": [
      {
        "name": "Butts County Board of Elections",
        "address1": "625 West 3rd Street, Suite 5",
        "city": "Jackson",
        "zip": "30233",
        "coordinates": [
          -83.9752861,
          33.2934411
        ]
      }
    ]
  },
  {
    "name": "Calhoun",
    "id": "19",
    "locations": [
      {
        "name": "City of Arlington",
        "address1": "567 Pioneer Rd",
        "city": "Arlington",
        "zip": "39813",
        "coordinates": [
          -84.7261448,
          31.4402942
        ]
      },
      {
        "name": "City of Edison",
        "address1": "19437 Hartford St",
        "city": "Edison",
        "zip": "39846",
        "coordinates": [
          -84.7334374,
          31.5598568
        ]
      },
      {
        "name": "City of Leary",
        "address1": "39292 Mercer Ave",
        "city": "Leary",
        "zip": "39862",
        "coordinates": [
          -84.5165442,
          31.4861289
        ]
      },
      {
        "name": "Calhoun Co Courthouse",
        "address1": "Voter Registration Office",
        "address2": "31 Court St. Suite E",
        "city": "Morgan",
        "zip": "39866",
        "coordinates": [
          -84.6007035,
          31.5382182
        ]
      }
    ]
  },
  {
    "name": "Camden",
    "id": "20",
    "locations": [
      {
        "name": "Dept. of Motor Vehicles",
        "address1": "333 S Ashley St",
        "city": "Kingsland",
        "zip": "31548",
        "coordinates": [
          -81.6839125,
          30.7979917
        ]
      },
      {
        "name": "Kingsland Rec Center",
        "address1": "1050 Wildcat Dr",
        "city": "Kingsland",
        "zip": "31548",
        "coordinates": [
          -81.6468043,
          30.8139285
        ]
      },
      {
        "name": "Salvation Army Resource Center",
        "address1": "1915 Osborne St",
        "city": "Saint Marys",
        "zip": "31558",
        "coordinates": [
          -81.5437449,
          30.7419442
        ]
      },
      {
        "name": "Voter Registration",
        "address1": "200 E 4th St",
        "city": "Woodbine",
        "zip": "31569",
        "coordinates": [
          -81.7232475,
          30.9681265
        ]
      }
    ]
  },
  {
    "name": "Candler",
    "id": "21",
    "locations": [
      {
        "name": "Jack Strickland Building",
        "address1": "621 West Pine Street ",
        "city": "Metter",
        "zip": "30439",
        "coordinates": [
          -82.0664565,
          32.3935238
        ]
      }
    ]
  },
  {
    "name": "Carroll",
    "id": "22",
    "locations": [
      {
        "name": "Carroll County Board of Elections and Registration, Lower Level",
        "address1": "423 College Street",
        "city": "Carrollton",
        "zip": "30117",
        "coordinates": [
          -85.071579,
          33.5838589
        ]
      }
    ]
  },
  {
    "name": "Catoosa",
    "id": "23",
    "locations": [
      {
        "name": "Fort Oglethorpe City Hall (Ft Oglethorpe Municipal Voters Only)",
        "address1": "500 City Hall Dr.",
        "city": "Fort Oglethorpe",
        "zip": "30742",
        "coordinates": [
          -85.2461816,
          34.9501987
        ]
      },
      {
        "name": "Catoosa Hall",
        "address1": "7658 Nashville Street",
        "city": "Ringgold",
        "zip": "",
        "coordinates": [
          -85.1113341,
          34.9163641
        ]
      },
      {
        "name": "Freedom Center",
        "address1": "5238 Evitt Street",
        "city": "Ringgold",
        "zip": "30736",
        "coordinates": [
          -85.1069494,
          34.9159986
        ]
      },
      {
        "name": "Ringgold City Hall (Ringgold Municipal Voters Only)",
        "address1": "150 Tennessee St.",
        "city": "Ringgold",
        "zip": "30736",
        "coordinates": [
          -85.1093542,
          34.9162501
        ]
      },
      {
        "name": "Westside Voting Precinct",
        "address1": "3319 Lakeview Dr",
        "city": "Rossville",
        "zip": "30741",
        "coordinates": [
          -85.2253164,
          34.9615193
        ]
      }
    ]
  },
  {
    "name": "Charlton",
    "id": "24",
    "locations": [
      {
        "name": "Charlton County Board of Elections & Registration",
        "address1": "Courthouse",
        "address2": "1520 Third St, Suite C",
        "city": "Folkston",
        "zip": "31537",
        "coordinates": [
          -82.0048211,
          30.8318503
        ]
      },
      {
        "name": "Saint George Community Center",
        "address1": "13063 Florida Ave",
        "city": "Saint George",
        "zip": "31562",
        "coordinates": [
          -82.038051,
          30.5245717
        ]
      }
    ]
  },
  {
    "name": "Chatham",
    "id": "25",
    "locations": [
      {
        "name": "Civic Center",
        "address1": "301 W Oglethorpe Ave",
        "city": "Savannah",
        "zip": "31401",
        "coordinates": [
          -81.0963796,
          32.0760185
        ]
      },
      {
        "name": "Islands Library",
        "address1": "50 Johnny Mercer Blvd",
        "city": "Savannah",
        "zip": "31410",
        "coordinates": [
          -81.0180885,
          32.0390197
        ]
      },
      {
        "name": "Mosquito Control",
        "address1": "65 Billy B Hair Dr",
        "city": "Savannah",
        "zip": "31408",
        "coordinates": [
          -81.1919502,
          32.1180202
        ]
      },
      {
        "name": "Southwest Library",
        "address1": "14097 Abercorn St",
        "city": "Savannah",
        "zip": "31419",
        "coordinates": [
          -81.1760063,
          31.9857108
        ]
      },
      {
        "name": "Voter Registration Office",
        "address1": "1117 Eisenhower Drive, Suite E",
        "city": "Savannah",
        "zip": "31401",
        "coordinates": [
          -81.1013359,
          32.006771
        ]
      }
    ]
  },
  {
    "name": "Chattahoochee",
    "id": "26",
    "locations": [
      {
        "name": "Unified Gov't Offices of Cusseta-Chattahoochee Co ",
        "address1": "215 McNaughton St.",
        "city": "Cusseta",
        "zip": "",
        "coordinates": [
          -84.7657452,
          32.3077137
        ]
      }
    ]
  },
  {
    "name": "Chattooga",
    "id": "27",
    "locations": [
      {
        "name": "Chattooga County Registrar Office",
        "address1": "10017 Commerce Street",
        "city": "Summerville",
        "zip": "30747",
        "coordinates": [
          -85.3483891,
          34.480052
        ]
      }
    ]
  },
  {
    "name": "Cherokee",
    "id": "28",
    "locations": [
      {
        "name": "Ball Ground Public Library",
        "address1": "435 Old Canton Road",
        "city": "Ball Ground",
        "zip": "30107",
        "coordinates": [
          -84.3781149,
          34.340435
        ]
      },
      {
        "name": "Cherokee County Elections & Registration",
        "address1": "400 East Main Street",
        "city": "Canton",
        "zip": "30114",
        "coordinates": [
          -84.487127,
          34.236605
        ]
      },
      {
        "name": "Hickory Flat Public Library",
        "address1": "2740 East Cherokee Drive",
        "city": "Canton",
        "zip": "30115",
        "coordinates": [
          -84.4214352,
          34.1704298
        ]
      },
      {
        "name": "Rose Creek Public Library",
        "address1": "4476 Towne Lake Parkway",
        "city": "Woodstock",
        "zip": "30189",
        "coordinates": [
          -84.5440235,
          34.1057048
        ]
      },
      {
        "name": "Woodstock Public Library",
        "address1": "7735 Main Street",
        "city": "Woodstock",
        "zip": "30188",
        "coordinates": [
          -84.5144904,
          34.1127015
        ]
      }
    ]
  },
  {
    "name": "Clarke",
    "id": "29",
    "locations": [
      {
        "name": "Athens-Clarke County Board of Elections",
        "address1": "155 East Washington Street",
        "city": "Athens",
        "zip": "30601",
        "coordinates": [
          -83.376911,
          33.9594017
        ]
      },{
        "name": "Athens Clarke-County City Hall",
        "address1": "301 College Avenue",
        "address2": "Conference Room 103",
        "city": "Athens",
        "zip": "30601",
        "coordinates": [
          -83.3765869,
          33.9596624
        ]
      },{
        "name": "Athens Regional Library",
        "address1": "2025 Baxter Street",
        "city": "Athens",
        "zip": "30606",
        "coordinates": [
          -83.4038093,
          33.9449381
        ]
      },{
        "name": "UGA Tate Student Center ",
        "address1": "Room 137 ",
        "city": "Athens",
        "zip": "30602",
        "coordinates": [
          -83.3757667,
          33.9504992
        ]
      }
    ]
  },
  {
    "name": "Clay",
    "id": "30",
    "locations": [
      {
        "name": "Clay County Courthouse",
        "address1": "210 South Washington Street",
        "city": "Fort Gaines",
        "zip": "",
        "coordinates": [
          -85.049019,
          31.6052993
        ]
      }
    ]
  },
  {
    "name": "Clayton",
    "id": "31",
    "locations": [
      {
        "name": "South Clayton Recreation Center",
        "address1": "1837 McDonough Road",
        "city": "Hampton",
        "zip": "30228",
        "coordinates": [
          -84.3308016,
          33.4480994
        ]
      },
      {
        "name": "Clayton County Elections and Registration",
        "address1": "Second Floor",
        "address2": "121 S. McDonough Street",
        "city": "Jonesboro",
        "zip": "30236",
        "coordinates": [
          -84.3554281,
          33.5210731
        ]
      },
      {
        "name": "Lee Headquarters Library",
        "address1": "865 Battle Creek Road",
        "city": "Jonesboro",
        "zip": "30236",
        "coordinates": [
          -84.3633345,
          33.5532549
        ]
      },
      {
        "name": "Morrow Municipal Complex",
        "address1": "1500 Morrow Road",
        "city": "Morrow",
        "zip": "30260",
        "coordinates": [
          -84.340798,
          33.583658
        ]
      },
      {
        "name": "Carl Rhodenizer Recreation Center ",
        "address1": "3499 Rex Road",
        "city": "Rex",
        "zip": "30273",
        "coordinates": [
          -84.2762357,
          33.587247
        ]
      },
      {
        "name": "Virginia Burton Gray Recreation Center ",
        "address1": "1475 East Fayetteville Road",
        "city": "Riverdale",
        "zip": "30274",
        "coordinates": [
          -84.437761,
          33.5900625
        ]
      },
      {
        "name": "Old Riverdale City Hall",
        "address1": "6690 Church Street",
        "city": "Riverdale",
        "zip": "30274",
        "coordinates": [
          -84.4175507,
          33.5720574
        ]
      }
    ]
  },
  {
    "name": "Clinch",
    "id": "32",
    "locations": [
      {
        "name": "",
        "address1": "25 Court Square Suite A",
        "city": "Homerville",
        "zip": "31634",
        "coordinates": [
          -82.7516311,
          31.0418946
        ]
      }
    ]
  },
  {
    "name": "Cobb",
    "id": "33",
    "locations": [
      {
        "name": "Austell City Hall",
        "address1": "2716 Broad Street SW",
        "city": "Austell",
        "zip": "30206",
        "coordinates": [
          -84.6355694,
          33.8137046
        ]
      },
      {
        "name": "Six Flags Area",
        "address1": "South Cobb Recreation Center",
        "address2": "875 Six Flags Drive",
        "city": "Austell",
        "zip": "30168-7064",
        "coordinates": [
          -84.5808616,
          33.7769812
        ]
      },
      {
        "name": "NorthStar Church",
        "address1": "3413 Blue Springs Rd., NW",
        "city": "Kennesaw",
        "zip": "30144-1082",
        "coordinates": [
          -84.6517694,
          34.0360177
        ]
      },
      {
        "name": "Ben Robertson Community Center",
        "address1": "2753 Watts Rd.",
        "city": "Kennesaw",
        "zip": "30144",
        "coordinates": [
          -84.6230507,
          34.0215994
        ]
      },
      {
        "name": "South Cobb Community Center",
        "address1": "620 Lions Club Dr.",
        "city": "Mableton",
        "zip": "30126-2438",
        "coordinates": [
          -84.571845,
          33.8185969
        ]
      },
      {
        "name": "Central, Cobb Civic Center",
        "address1": "548 S. Marietta Pkwy",
        "city": "Marietta",
        "zip": "30060-2251",
        "coordinates": [
          -84.5112628,
          33.9403288
        ]
      },
      {
        "name": "East Cobb Government Svcs. Center",
        "address1": "4400 Lower Roswell Rd.",
        "city": "Marietta",
        "zip": "30068-4233",
        "coordinates": [
          -84.4228727,
          33.9632547
        ]
      },
      {
        "name": "Main Office",
        "address1": "736 Whitlock Ave. NW",
        "city": "Marietta",
        "zip": "30064-4663",
        "coordinates": [
          -84.5739717,
          33.9535641
        ]
      },
      {
        "name": "Mountain View, East Cobb Senior Center",
        "address1": "3332 Sandy Plains Rd.",
        "city": "Marietta",
        "zip": "30066-4743",
        "coordinates": [
          -84.4660956,
          34.0324775
        ]
      },
      {
        "name": "Noonday Baptist Church Sanctuary",
        "address1": "4120 Canton Rd.",
        "city": "Marietta",
        "zip": "30066-2714",
        "coordinates": [
          -84.5258519,
          34.0514598
        ]
      },
      {
        "name": "Senior Wellness Center ",
        "address1": "Powder Springs Station",
        "address2": "1150 Powder Springs St.",
        "city": "Marietta",
        "zip": "30064-5287",
        "coordinates": [
          -84.5742764,
          33.9262658
        ]
      },
      {
        "name": "Switzer Central Library",
        "address1": "266 Roswell St.",
        "city": "Marietta",
        "zip": "30060-2005",
        "coordinates": [
          -84.5441581,
          33.9500493
        ]
      },
      {
        "name": "Boots Ward Recreation Center",
        "address1": "(Lost Mountain Park)",
        "address2": "4845 Dallas Hwy.",
        "city": "Powder Springs",
        "zip": "30127-4486",
        "coordinates": [
          -84.6950732,
          33.9421345
        ]
      },
      {
        "name": "Powder Springs Community Development Building",
        "address1": "4488 Pineview Dr.",
        "city": "Powder Springs",
        "zip": "30127",
        "coordinates": [
          -84.6865421,
          33.8609483
        ]
      },
      {
        "name": "Powder Springs",
        "address1": "Ron Anderson Recreation Center (Wild Horse Park)",
        "address2": "3820 Macedonia Rd.",
        "city": "Powder Springs",
        "zip": "30127-3624",
        "coordinates": [
          -84.6649034,
          33.8764844
        ]
      },
      {
        "name": "Smyrna Community Center",
        "address1": "200 Village Green Cir.",
        "city": "Smyrna",
        "zip": "30080",
        "coordinates": [
          -84.5187446,
          33.8863117
        ]
      },
      {
        "name": "Windy Hill Community Center",
        "address1": "1885 Roswell St. SE",
        "city": "Smyrna",
        "zip": "30080-2213",
        "coordinates": [
          -84.504898,
          33.8907475
        ]
      }
    ]
  },
  {
    "name": "Coffee",
    "id": "34",
    "locations": [
      {
        "name": "Elections & Registation",
        "address1": "224 West Ashley Street",
        "city": "Douglas",
        "zip": "31533",
        "coordinates": [
          -82.8525371,
          31.5078121
        ]
      }
    ]
  },
  {
    "name": "Colquitt",
    "id": "35",
    "locations": [
      {
        "name": "Doerun City Hall",
        "address1": "223 W Broad Avenue",
        "city": "Doerun",
        "zip": "31744",
        "coordinates": [
          -83.9178436,
          31.3194844
        ]
      },
      {
        "name": "Ellenton City Hall",
        "address1": "103 N Baker St",
        "city": "Ellenton",
        "zip": "31747",
        "coordinates": [
          -83.5897238,
          31.1779503
        ]
      },
      {
        "name": "Courthouse Annex",
        "address1": "101 East Central Avenue, Room 133",
        "city": "Moultrie",
        "zip": "31768",
        "coordinates": [
          -83.7872795,
          31.1802961
        ]
      },
      {
        "name": "Moultrie City Hall",
        "address1": "21 1st Avenue, NE",
        "city": "Moultrie",
        "zip": "31768",
        "coordinates": [
          -83.7900781,
          31.1815393
        ]
      }
    ]
  },
  {
    "name": "Columbia",
    "id": "36",
    "locations": [
      {
        "name": "Stevens Creek Community Church",
        "address1": "600 Stevens Creek Road",
        "city": "Augusta",
        "zip": "30907",
        "coordinates": [
          -82.0504837,
          33.5382255
        ]
      },
      {
        "name": "Columbia County Early Voting at G3",
        "address1": "610 Ronald Reagan Drive",
        "address2": "Buiilding G3 - next to Zaxbys",
        "city": "Evans",
        "zip": "30809",
        "coordinates": [
          -82.1360883,
          33.5432992
        ]
      },
      {
        "name": "Columbia County Board of Elections",
        "address1": "500 Faircloth Drive, Building E",
        "city": "Evans",
        "zip": "30809",
        "coordinates": [
          -82.1356588,
          33.5454835
        ]
      },
      {
        "name": "Patriots Park",
        "address1": "5445 Columbia Road",
        "city": "Grovetown",
        "zip": "30813",
        "coordinates": [
          -82.2295158,
          33.5199692
        ]
      }
    ]
  },
  {
    "name": "Cook",
    "id": "37",
    "locations": [
      {
        "name": "Cook County Administration Building",
        "address1": "1200 S Hutchinson Ave",
        "city": "Adel",
        "zip": "31620",
        "coordinates": [
          -83.4167159,
          31.1210674
        ]
      }
    ]
  },
  {
    "name": "Coweta",
    "id": "38",
    "locations": [
      {
        "name": "Coweta County Voter Registration Office",
        "address1": "22 East Broad Street",
        "address2": "Room 128",
        "city": "Newnan",
        "zip": "30263",
        "coordinates": [
          -84.7983802,
          33.3746465
        ]
      },
      {
        "name": "East Side Central Community Center",
        "address1": "65 Literary Lane",
        "city": "Newnan",
        "zip": "30265",
        "coordinates": [
          -84.6712726,
          33.3862513
        ]
      }
    ]
  },
  {
    "name": "Crawford",
    "id": "39",
    "locations": [
      {
        "name": "Development Center",
        "address1": "1011 US Highway 341 North, Room 9",
        "city": "Roberta",
        "zip": "31078",
        "coordinates": [
          -84.0167745,
          32.739083
        ]
      }
    ]
  },
  {
    "name": "Crisp",
    "id": "40",
    "locations": [
      {
        "name": "Government Center",
        "address1": "210 S 7th St. Room 103",
        "city": "Cordele",
        "zip": "31015",
        "coordinates": [
          -83.7832972,
          31.9671732
        ]
      },
      {
        "name": "Government Center Annex (Ag Bldg)",
        "address1": "110 W 13th Ave.",
        "city": "Cordele",
        "zip": "31015",
        "coordinates": [
          -83.7838024,
          31.9672124
        ]
      }
    ]
  },
  {
    "name": "Dade",
    "id": "41",
    "locations": [
      {
        "name": "Administration Building",
        "address1": "71 Case Avenue",
        "city": "Trenton",
        "zip": "30752",
        "coordinates": [
          -85.5109415,
          34.8720827
        ]
      },
      {
        "name": "City Hall",
        "address1": "12885 N Main St",
        "city": "Trenton",
        "zip": "30752",
        "coordinates": [
          -85.5055652,
          34.8788848
        ]
      }
    ]
  },
  {
    "name": "Dawson",
    "id": "42",
    "locations": [
      {
        "name": "Dawson County Board of Elections and Registration",
        "address1": "96 Academy Avenue",
        "city": "Dawsonville",
        "zip": "30534",
        "coordinates": [
          -84.1231747,
          34.4201527
        ]
      }
    ]
  },
  {
    "name": "Decatur",
    "id": "43",
    "locations": [
      {
        "name": "Courthouse Annex",
        "address1": "122 West Water Street",
        "city": "Bainbridge",
        "zip": "39817",
        "coordinates": [
          -84.5768025,
          30.9065253
        ]
      },
      {
        "name": "Fairgrounds, Chamber 1",
        "address1": "1211 Vada Road",
        "city": "Bainbridge",
        "zip": "39817",
        "coordinates": [
          -84.5582034,
          30.9151421
        ]
      }
    ]
  },
  {
    "name": "DeKalb",
    "id": "44",
    "locations": [
      {
        "name": "Coan Recreation Center-Atlanta",
        "address1": "1530 Woodbine Avenue, SE",
        "city": "Atlanta",
        "zip": "30317",
        "coordinates": [
          -84.3369454,
          33.7518615
        ]
      },
      {
        "name": "Brookhaven City Hall",
        "address1": "4362 Peachtree Road NE",
        "city": "Brookhaven",
        "zip": "30319",
        "coordinates": [
          -84.334038,
          33.87074
        ]
      },
      {
        "name": "Chamblee Civic Center",
        "address1": "3540 Broad Street",
        "city": "Chamblee",
        "zip": "30341",
        "coordinates": [
          -84.299345,
          33.896014
        ]
      },
      {
        "name": "Clark Harrison Center - Decatur",
        "address1": "330 West Ponce de Leon Ave., Room A",
        "city": "Decatur",
        "zip": "30030",
        "coordinates": [
          -84.3006403,
          33.775326
        ]
      },
      {
        "name": "Memorial Drive Complex, Suite 300",
        "address1": "4380 Memorial Drive",
        "city": "Decatur",
        "zip": "30032",
        "coordinates": [
          -84.2467355,
          33.777961
        ]
      },
      {
        "name": "The Gallery at South DeKalb Mall",
        "address1": "2801 Candler Road",
        "city": "Decatur",
        "zip": "30034",
        "coordinates": [
          -84.2748457,
          33.7087634
        ]
      },
      {
        "name": "Dunwoody Library",
        "address1": "5339 Chamblee Dunwoody Road",
        "city": "Dunwoody",
        "zip": "30338",
        "coordinates": [
          -84.332176,
          33.9447802
        ]
      },
      {
        "name": "Stonecrest Library",
        "address1": "3123 Klondike Road",
        "city": "Lithonia",
        "zip": "30038",
        "coordinates": [
          -84.1112021,
          33.6936596
        ]
      },
      {
        "name": "Berean Christian Church Community Center",
        "address1": "2440 Young Road",
        "city": "Stone Mountain",
        "zip": "30088",
        "coordinates": [
          -84.178803,
          33.733515
        ]
      },
      {
        "name": "Tucker Recreation Center",
        "address1": "4898 LaVista Road",
        "city": "Tucker",
        "zip": "30084",
        "coordinates": [
          -84.220701,
          33.855758
        ]
      }
    ]
  },
  {
    "name": "Dodge",
    "id": "45",
    "locations": [
      {
        "name": "Dodge County Registrar Office",
        "address1": "5401 Anson Avenue",
        "address2": "Courthouse Circle",
        "city": "Eastman",
        "zip": "31023",
        "coordinates": [
          -83.1754971,
          32.2002741
        ]
      }
    ]
  },
  {
    "name": "Dooly",
    "id": "46",
    "locations": [
      {
        "name": "Unadilla City Hall",
        "address1": "1616 Borum St",
        "city": "Unadilla",
        "zip": "31092",
        "coordinates": [
          -83.7424825,
          32.2628412
        ]
      },
      {
        "name": "Vienna Voting Precinct",
        "address1": "402 Hawkinsville Road",
        "city": "Vienna",
        "zip": "31092",
        "coordinates": [
          -83.7800262,
          32.0960867
        ]
      },
      {
        "name": "Vienna City Hall",
        "address1": "203 Cotton St",
        "city": "Vienna",
        "zip": "31092",
        "coordinates": [
          -83.7962003,
          32.090299
        ]
      }
    ]
  },
  {
    "name": "Dougherty",
    "id": "47",
    "locations": [
      {
        "name": "",
        "address1": "222 Pine Avenue, Room 220",
        "city": "Albany",
        "zip": "31701",
        "coordinates": [
          -84.1525562,
          31.5777153
        ]
      },
      {
        "name": "",
        "address1": "125 Pine Ave",
        "city": "Albany",
        "zip": "31701",
        "coordinates": [
          -84.1505495,
          31.5788788
        ]
      }
    ]
  },
  {
    "name": "Douglas",
    "id": "48",
    "locations": [
      {
        "name": "Board of Elections and Registration",
        "address1": "8700 Hospital Drive",
        "city": "Douglasville",
        "zip": "30134",
        "coordinates": [
          -84.7305898,
          33.7434934
        ]
      },
      {
        "name": "Boundary Waters Aquatic Center",
        "address1": "5000 Ga. Hwy 92",
        "city": "Douglasville",
        "zip": "30135",
        "coordinates": [
          -84.6580816,
          33.6709096
        ]
      },
      {
        "name": "Deer Lick Park Recreation Center",
        "address1": "2105 Mack Road",
        "city": "Douglasville",
        "zip": "30135",
        "coordinates": [
          -84.684364,
          33.7491739
        ]
      },
      {
        "name": "Dog River Library",
        "address1": "6100 Ga. Hwy 5",
        "city": "Douglasville",
        "zip": "30135",
        "coordinates": [
          -84.8315887,
          33.6418986
        ]
      },
      {
        "name": "Old Douglas County Courthouse",
        "address1": "6745 Church Street",
        "city": "Douglasville",
        "zip": "30134",
        "coordinates": [
          -84.7504251,
          33.7496736
        ]
      },
      {
        "name": "Powell Park Arts Center",
        "address1": "424 Leslie Drive",
        "city": "Villa Rica",
        "zip": "30180",
        "coordinates": [
          -84.9288121,
          33.7290987
        ]
      }
    ]
  },
  {
    "name": "Early",
    "id": "49",
    "locations": [
      {
        "name": "Elections and Registration Office",
        "address1": "17 McDonald Ave.",
        "city": "Blakely",
        "zip": "39823",
        "coordinates": [
          -84.9328085,
          31.378284
        ]
      }
    ]
  },
  {
    "name": "Echols",
    "id": "50",
    "locations": [
      {
        "name": "County Courthouse",
        "address1": "Grand Jury Room",
        "address2": "110 hwy 94 east",
        "city": "Statenville",
        "zip": "31648",
        "coordinates": [
          -83.0251843,
          30.7035045
        ]
      }
    ]
  },
  {
    "name": "Effingham",
    "id": "51",
    "locations": [
      {
        "name": "Old Marlow Elementary School",
        "address1": "4752 GA Highway 17 South",
        "city": "Guyton",
        "zip": "31312",
        "coordinates": [
          -81.3654221,
          32.2077848
        ]
      },
      {
        "name": "Board of Elections and Registration",
        "address1": "284 Highway 119 South",
        "city": "Springfield",
        "zip": "31329",
        "coordinates": [
          -81.3166711,
          32.3695625
        ]
      }
    ]
  },
  {
    "name": "Elbert",
    "id": "52",
    "locations": [
      {
        "name": "Registrar's Office",
        "address1": "45 Forest Avenue",
        "city": "Elberton",
        "zip": "30635",
        "coordinates": [
          -82.8688087,
          34.1099341
        ]
      }
    ]
  },
  {
    "name": "Emanuel",
    "id": "53",
    "locations": [
      {
        "name": "Emanuel County Office of Elections & Registration",
        "address1": "105 South Main Street",
        "city": "Swainsboro",
        "zip": "30401",
        "coordinates": [
          -82.3340938,
          32.597236
        ]
      }
    ]
  },
  {
    "name": "Evans",
    "id": "54",
    "locations": [
      {
        "name": "Claxton City Hall",
        "address1": "206 Railroad St",
        "city": "Claxton",
        "zip": "30417",
        "coordinates": [
          -81.9135064,
          32.1604508
        ]
      },
      {
        "name": "Evan's County Registrar's Office",
        "address1": "Courthouse Annex",
        "address2": "201 Freeman Street",
        "city": "Claxton",
        "zip": "30417",
        "coordinates": [
          -81.9076188,
          32.1618104
        ]
      },
      {
        "name": "Hagan City Hall",
        "address1": "6327 Tattnall St",
        "city": "Hagan",
        "zip": "30429",
        "coordinates": [
          -81.9372654,
          32.1560008
        ]
      }
    ]
  },
  {
    "name": "Fannin",
    "id": "55",
    "locations": [
      {
        "name": "Fannin County Board of Elections and Registration",
        "address1": "400 West Main Street, Suite 301",
        "city": "Blue Ridge",
        "zip": "30513",
        "coordinates": [
          -84.3269915,
          34.8642574
        ]
      },
      {
        "name": "McCaysville City Hall",
        "address1": "223 Blue Ridge Drive",
        "city": "McCaysville",
        "zip": "30555",
        "coordinates": [
          -84.3726378,
          34.9856095
        ]
      }
    ]
  },
  {
    "name": "Fayette",
    "id": "56",
    "locations": [
      {
        "name": "Fayette County Elections Office",
        "address1": "140 Stonewall Avenue West, Suite 209",
        "city": "Fayetteville",
        "zip": "30214",
        "coordinates": [
          -84.457149,
          33.4470178
        ]
      },
      {
        "name": "Fayette County Administrative Complex",
        "address1": "Public Meeting Room",
        "address2": "140 Stonewall Ave. West",
        "city": "Fayetteville",
        "zip": "30214",
        "coordinates": [
          -84.457149,
          33.4470178
        ]
      },
      {
        "name": "Peachtree City Library",
        "address1": "201 Willow Bend Rd",
        "city": "Peachtree City",
        "zip": "30269",
        "coordinates": [
          -84.5806959,
          33.4004543
        ]
      },
      {
        "name": "Tyrone Town Hall",
        "address1": "881 Senoia Rd.",
        "city": "Tyrone",
        "zip": "30290",
        "coordinates": [
          -84.596434,
          33.4752139
        ]
      }
    ]
  },
  {
    "name": "Floyd",
    "id": "57",
    "locations": [
      {
        "name": "Elections and Registration Office",
        "address1": "12 East 4th Avenue",
        "address2": "2nd Floor/County Administrative Bldg.",
        "city": "Rome",
        "zip": "30161",
        "coordinates": [
          -85.1715337,
          34.2537934
        ]
      },
      {
        "name": "Rome Civic Center",
        "address1": "400 Civic Center Dr",
        "city": "Rome",
        "zip": "30161",
        "coordinates": [
          -85.1666382,
          34.2610048
        ]
      },
      {
        "name": "Garden Lakes Baptist Church",
        "address1": "2200 Redmond Circle",
        "address2": "",
        "city": "Rome",
        "zip": "30165",
        "coordinates": [
          -85.2274409,
          34.2840374
        ]
      }
    ]
  },
  {
    "name": "Forsyth",
    "id": "58",
    "locations": [
      {
        "name": "Cumming City Hall",
        "address1": "100 Main Street",
        "city": "Cumming",
        "zip": "30040",
        "coordinates": [
          -84.1396436,
          34.2073115
        ]
      },
      {
        "name": "Hampton Park Library",
        "address1": "5345 Settingdown Rd",
        "city": "Cumming",
        "zip": "30041",
        "coordinates": [
      -84.0676029,
      34.3052558
        ]
      },
      {
        "name": "Midway Park Community Building",
        "address1": "5100 Post Road",
        "city": "Cumming",
        "zip": "30040",
        "coordinates": [
      -84.215062,
      34.2024959
        ]
      },
      {
        "name": "Sharon Springs Park Community Building",
        "address1": "1950 Sharon Road",
        "city": "Cumming",
        "zip": "30041",
        "coordinates": [
          -84.163131,
          34.1180612
        ]
      },
      {
        "name": "Voter Registrations & Elections Office",
        "address1": "Forsyth County Administration Bldg",
        "address2": "110 East Main Street",
        "city": "Cumming",
        "zip": "30040",
        "coordinates": [
          -84.13868,
          34.2073343
        ]
      }
    ]
  },
  {
    "name": "Franklin",
    "id": "59",
    "locations": [
      {
        "name": "Elections & Registration Office",
        "address1": "211 Athens Street",
        "city": "Carnesville",
        "zip": "30521",
        "coordinates": [
          -83.2360011,
          34.3690379
        ]
      },
      {
        "name": "Royston City Hall",
        "address1": "684 Franklin Springs St.",
        "city": "Royston",
        "zip": "30662",
        "coordinates": [
          -83.1228854,
          34.284463
        ]
      }
    ]
  },
  {
    "name": "Fulton",
    "id": "60",
    "locations": [
      {
        "name": "Alpharetta Library",
        "address1": "10 Park Plaza",
        "city": "Alpharetta",
        "zip": "30009",
        "coordinates": [
          -84.2927676,
          34.0746212
        ]
      },
      {
        "name": "Crabapple Neighborhood Senior Center",
        "address1": "12624 Boadwell Rd.",
        "city": "Alpharetta",
        "zip": "30004",
        "coordinates": [
          -84.3400837,
          34.0892296
        ]
      },
      {
        "name": "Johns Creek Environmental Campus",
        "address1": "8100 Holcomb Bridge Road",
        "city": "Alpharetta",
        "zip": "30022",
        "coordinates": [
          -84.2655154,
          33.9773142
        ]
      },
      {
        "name": "The Milton Center",
        "address1": "86 School Drive",
        "city": "Alpharetta",
        "zip": "30004",
        "coordinates": [
          -84.2989111,
          34.0768876
        ]
      },
      {
        "name": "Adamsville Recreation Center",
        "address1": "3201 MLK Jr. Dr. SW",
        "city": "Atlanta",
        "zip": "30311",
        "coordinates": [
          -84.492061,
          33.754541
        ]
      },
      {
        "name": "Adamsville Collier Heights Library",
        "address1": "3424 Martin Luther King Jr. Dr.",
        "city": "Atlanta",
        "zip": "30331",
        "coordinates": [
          -84.5001655,
          33.7550039
        ]
      },
      {
        "name": "Atlanta Metropolitan State College",
        "address1": "1630 Metropolitan Parkway, SW",
        "address2": "Edwin Thompson, Sr. Student Center Building 800",
        "city": "Atlanta",
        "zip": "30310",
        "coordinates": [
          -84.4058321,
          33.7119314
        ]
      },
      {
        "name": "Ben Hill Recreation Center",
        "address1": "2405 Fairburn Road SW",
        "city": "Atlanta",
        "zip": "30331",
        "coordinates": [
          -84.5129982,
          33.6886564
        ]
      },
      {
        "name": "Buckhead Library",
        "address1": "269 Buckhead Ave. NE",
        "city": "Atlanta",
        "zip": "30305",
        "coordinates": [
          -84.3792862,
          33.8377839
        ]
      },
      {
        "name": "Chastain Park Recreation Center",
        "address1": "140 W. Wieuca Rd. NW ",
        "city": "Atlanta",
        "zip": "30342",
        "coordinates": [
          -84.3917385,
          33.8753116
        ]
      },
      {
        "name": "Fulton County Government Center",
        "address1": "130 Peachtree Street SW",
        "city": "Atlanta",
        "zip": "30303",
        "coordinates": [
          -84.3921204,
          33.7510458
        ]
      },
      {
        "name": "Georgia Hill Building",
        "address1": "250 Georgia Avenue SE",
        "city": "Atlanta",
        "zip": "30312",
        "coordinates": [
          -84.3793794,
          33.7370753
        ]
      },
      {
        "name": "Georgia Institute Technology",
        "address1": "William C. Wardlaw Jr. Center-The Poole Board Room",
        "address2": "177 North Ave. ",
        "city": "Atlanta",
        "zip": "30332",
        "coordinates": [
          -84.3929338,
          33.7716014
        ]
      },
      {
        "name": "Georgia State University",
        "address1": "Veterans Memorial Hall in Dahlberg Hall",
        "address2": "30 Courtland Street",
        "city": "Atlanta",
        "zip": "30303",
        "coordinates": [
          -84.3849794,
          33.7535952
        ]
      },
      {
        "name": "Harriet G. Darnell Senior Multi-Purpose",
        "address1": "677 Fairburn Road, NW",
        "city": "Atlanta",
        "zip": "30331",
        "coordinates": [
          -84.4995339,
          33.7741892
        ]
      },
      {
        "name": "Helene S. Mills Senior Multi-Purpose",
        "address1": "515 John Wesley Dobbs Ave., NE",
        "city": "Atlanta",
        "zip": "30312",
        "coordinates": [
          -84.3711505,
          33.7587541
        ]
      },
      {
        "name": "New Horizon Neighborhood Senior Center",
        "address1": "745 Orr Street, NW ",
        "city": "Atlanta",
        "zip": "30314",
        "coordinates": [
          -84.4118033,
          33.7625776
        ]
      },
      {
        "name": "Northside Library",
        "address1": "3295 Northside Parkway, NW",
        "city": "Atlanta",
        "zip": "30327",
        "coordinates": [
          -84.4254094,
          33.8451648
        ]
      },
      {
        "name": "Northwest Branch at Scotts Crossing Library",
        "address1": "2489 Perry Boulevard NW",
        "city": "Atlanta",
        "zip": "30318",
        "coordinates": [
          -84.4697134,
          33.8049385
        ]
      },
      {
        "name": "Palmetto Library",
        "address1": "9111 Cascade Palmetto Hwy",
        "city": "Atlanta",
        "zip": "30268",
        "coordinates": [
          -84.6629334,
          33.5280808
        ]
      },
      {
        "name": "Perkerson Park Recreation Center",
        "address1": "770 Deckner Avenue, SW",
        "city": "Atlanta",
        "zip": "30310",
        "coordinates": [
          -84.4137157,
          33.7126213
        ]
      },
      {
        "name": "Ponce De Leon Library",
        "address1": "980 Ponce De Leon Avenue NE",
        "city": "Atlanta",
        "zip": "30306",
        "coordinates": [
          -84.3552663,
          33.7741759
        ]
      },
      {
        "name": "Quality Living Services Senior Facility",
        "address1": "4001 Danforth Rd.,SW",
        "city": "Atlanta ",
        "zip": "30331",
        "coordinates": [
          -84.5195991,
          33.7266074
        ]
      },
      {
        "name": "Southeast Atlanta Library",
        "address1": "1463 Pryor Road",
        "city": "Atlanta ",
        "zip": "30315",
        "coordinates": [
          -84.3943136,
          33.7148422
        ]
      },
      {
        "name": "Southwest Arts Center",
        "address1": "915 New Hope Rd., SW",
        "city": "Atlanta",
        "zip": "30331",
        "coordinates": [
          -84.5415544,
          33.7296843
        ]
      },
      {
        "name": "Washington Park Library",
        "address1": "1116 MLK JR. Drive, SW",
        "city": "Atlanta",
        "zip": "30314",
        "coordinates": [
          -84.4237409,
          33.7540521
        ]
      },
      {
        "name": "Wolf Creek Library",
        "address1": "3100 Enon Road",
        "city": "Atlanta",
        "zip": "30331",
        "coordinates": [
          -84.5743176,
          33.6726212
        ]
      },
      {
        "name": "College Park Historical Building",
        "address1": "3675 Auditorium Way",
        "city": "College Park",
        "zip": "30337",
        "coordinates": [
          -84.450878,
          33.655064
        ]
      },
      {
        "name": "College Park Library",
        "address1": "3647 Main Street",
        "city": "College Park",
        "zip": "30337",
        "coordinates": [
          -84.4498875,
          33.6556957
        ]
      },
      {
        "name": "South Fulton Service Center",
        "address1": "5600 Stonewall Tell Road Room 108",
        "city": "College Park",
        "zip": "30349",
        "coordinates": [
          -84.5498808,
          33.6014156
        ]
      },
      {
        "name": "Welcome All Recreation Center",
        "address1": "4255 Will Lee Rd",
        "city": "College Park",
        "zip": "30349",
        "coordinates": [
          -84.5284217,
          33.6331104
        ]
      },
      {
        "name": "East Point Library",
        "address1": "2757 Main Street",
        "city": "East Point",
        "zip": "30344",
        "coordinates": [
          -84.4406975,
          33.6803524
        ]
      },
      {
        "name": "H.J,C. Bowden Senior Multipurpose ",
        "address1": "2885 Church Street",
        "city": "East Point",
        "zip": "30344",
        "coordinates": [
          -84.4450607,
          33.6769189
        ]
      },
      {
        "name": "Fairburn Library",
        "address1": "60 Valley View Drive",
        "city": "Fairburn",
        "zip": "30075",
        "coordinates": [
          -84.5849416,
          33.5667928
        ]
      },
      {
        "name": "Northeast/Spruill Oaks Library",
        "address1": "9560 Spruill Road",
        "city": "Johns Creek",
        "zip": "30022",
        "coordinates": [
          -84.2227533,
          34.0147999
        ]
      },
      {
        "name": "Robert F. Fulton Ocee Library",
        "address1": "5090 Abbotts Bridge Road",
        "city": "Johns Creek",
        "zip": "30355",
        "coordinates": [
          -84.2095857,
          34.0645546
        ]
      },
      {
        "name": "Milton Library",
        "address1": "855 Mayfield Road",
        "city": "Milton",
        "zip": "30009",
        "coordinates": [
          -84.3367995,
          34.0903658
        ]
      },
      {
        "name": "Palmetto Neighborhood Senior Center",
        "address1": "510 Turner Ave.",
        "city": "Palmetto",
        "zip": "30268",
        "coordinates": [
          -84.6687709,
          33.5248132
        ]
      },
      {
        "name": "East Roswell Library",
        "address1": "2301 Holcomb Bridge Road",
        "city": "Roswell",
        "zip": "30076",
        "coordinates": [
          -84.2935563,
          34.0033506
        ]
      },
      {
        "name": "Roswell Library",
        "address1": "115 Norcross Street",
        "city": "Roswell",
        "zip": "30075",
        "coordinates": [
          -84.357783,
          34.0250688
        ]
      },
      {
        "name": "Roswell Neighborhood Senior Center",
        "address1": "1250 Warsaw Rd.",
        "city": "Roswell",
        "zip": "30076",
        "coordinates": [
          -84.3328461,
          34.0311526
        ]
      },
      {
        "name": "Dorothy C, Benson Senior Multi-Purpose",
        "address1": "6500 Venon Woods Dr. NE ",
        "city": "Sandy Springs",
        "zip": "30328",
        "coordinates": [
          -84.3781007,
          33.9293288
        ]
      },
      {
        "name": "North Fulton Service Center",
        "address1": "7741 Roswell Road, Suite 232",
        "city": "Sandy Springs",
        "zip": "30350",
        "coordinates": [
          -84.3627312,
          33.9657187
        ]
      },
      {
        "name": "Sandy Springs Library",
        "address1": "395 Mount Vernon Hwy NE",
        "city": "Sandy Springs",
        "zip": "30328",
        "coordinates": [
          -84.3740999,
          33.9244086
        ]
      }
    ]
  },
  {
    "name": "Gilmer",
    "id": "61",
    "locations": [
      {
        "name": "Gilmer County Registrar's Office",
        "address1": "1 Broad St., Suite 107",
        "city": "Ellijay",
        "zip": "30540",
        "coordinates": [
          -84.4808567,
          34.6959954
        ]
      }
    ]
  },
  {
    "name": "Glascock",
    "id": "62",
    "locations": [
      {
        "name": "Glascock County Registrars Office",
        "address1": "676 West Main Street",
        "city": "Gibson",
        "zip": "30810",
        "coordinates": [
          -82.596155,
          33.2334942
        ]
      }
    ]
  },
  {
    "name": "Glynn",
    "id": "63",
    "locations": [
      {
        "name": "Board of Elections",
        "address1": "1815 Gloucester Street",
        "address2": "Second Floor Office Park Building",
        "city": "Brunswick",
        "zip": "31520",
        "coordinates": [
          -81.4849111,
          31.1520756
        ]
      },
      {
        "name": "St. Simons Fire Station #2",
        "address1": "1929 Demere Road",
        "city": "St. Simons Island",
        "zip": "31522",
        "coordinates": [
          -81.3866924,
          31.1574208
        ]
      }
    ]
  },
  {
    "name": "Gordon",
    "id": "64",
    "locations": [
      {
        "name": "Gordon County Elections and Voter Registration Off",
        "address1": "101 S. Piedmont Street",
        "city": "Calhoun",
        "zip": "30701",
        "coordinates": [
          -84.9523817,
          34.502562
        ]
      }
    ]
  },
  {
    "name": "Grady",
    "id": "65",
    "locations": [
      {
        "name": "Grady County Registrar's Office",
        "address1": "24  3rd Ave NE",
        "city": "Cairo",
        "zip": "39828",
        "coordinates": [
          -84.2072241,
          30.8790904
        ]
      }
    ]
  },
  {
    "name": "Greene",
    "id": "66",
    "locations": [
      {
        "name": "Greene County Annex",
        "address1": "1180 C. Weldon Smith Drive",
        "city": "Greensboro",
        "zip": "30642",
        "coordinates": [
          -83.1935254,
          33.5661419
        ]
      }
    ]
  },
  {
    "name": "Gwinnett",
    "id": "67",
    "locations": [
      {
        "name": "Bogan Park Community Recreation Center",
        "address1": "2723 North Bogan Road",
        "city": "Buford",
        "zip": "30518",
        "coordinates": [
          -83.9691803,
          34.1072984
        ]
      },
      {
        "name": "Dacula Activity Building",
        "address1": "2735 Old Auburn Avenue",
        "city": "Dacula",
        "zip": "30019",
        "coordinates": [
          -83.8921146,
          33.9961374
        ]
      },
      {
        "name": "Shorty Howell Park Activity Building",
        "address1": "2750 Pleasant Hill Road",
        "city": "Duluth",
        "zip": "30096",
        "coordinates": [
          -84.1472517,
          33.9738868
        ]
      },
      {
        "name": "Voter Registration and Elections Main Office",
        "address1": "455 Grayson Highway, Suite 200",
        "city": "Lawrenceville",
        "zip": "30046",
        "coordinates": [
          -83.9820791,
          33.9389538
        ]
      },
      {
        "name": "Lucky Shoals Park Community Recreation Center",
        "address1": "4651 Britt Road",
        "city": "Norcross",
        "zip": "30039",
        "coordinates": [
      -84.1978186,
      33.8821369
        ]
      },
      {
        "name": "Centerville Community Center",
        "address1": "3025 Bethany Church Road",
        "city": "Snellville",
        "zip": "30039",
        "coordinates": [
          -84.049469,
          33.8168329
        ]
      },
      {
        "name": "Lenora Park Activity Room",
        "address1": "* Not the Gym",
        "address2": "4515 Lenora Church Road",
        "city": "Snellville",
        "zip": "30078",
        "coordinates": [
          -84.001639,
          33.790141
        ]
      },
      {
        "name": "Mountain Park Activity Building",
        "address1": "*Adjacent to the Aquatic Ctr",
        "address2": "1063 Rockbridge Road",
        "city": "Stone Mountain",
        "zip": "30087",
        "coordinates": [
          -84.1335473,
          33.8448843
        ]
      },
      {
        "name": "George Pierce Park Community Recreation Center",
        "address1": "55 Buford Highway",
        "city": "Suwanee",
        "zip": "30024",
        "coordinates": [
          -84.0506174,
          34.0595517
        ]
      }
    ]
  },
  {
    "name": "Habersham",
    "id": "68",
    "locations": [
      {
        "name": "Office of Elections & Registration",
        "address1": "555 Monroe Street",
        "address2": "Basement",
        "city": "Clarkesville",
        "zip": "30523",
        "coordinates": [
          -83.5278206,
          34.6151952
        ]
      },
      {
        "name": "Ruby Fulbright Aquatic Center",
        "address1": "120 Paul Franklin Road",
        "city": "Clarkesville",
        "zip": "30523",
        "coordinates": [
          -83.5031992,
          34.6104507
        ]
      },
      {
        "name": "First Baptist Church of Cornelia",
        "address1": "325 Oak Street",
        "city": "Cornelia",
        "zip": "30531",
        "coordinates": [
          -83.5247291,
          34.5105641
        ]
      }
    ]
  },
  {
    "name": "Hall",
    "id": "69",
    "locations": [
      {
        "name": "Spout Springs Library",
        "address1": "6488 Spout Springs Road ",
        "city": "Flowery Branch",
        "zip": "30542",
        "coordinates": [
          -83.8937781,
          34.1521162
        ]
      },
      {
        "name": "Hall County Government Center",
        "address1": "2875 Browns Bridge Road",
        "city": "Gainesville",
        "zip": "30501",
        "coordinates": [
          -83.8771232,
          34.2776161
        ]
      },
      {
        "name": "North Hall Community Center",
        "address1": "4175 Nopone Road",
        "city": "Gainesville",
        "zip": "30506",
        "coordinates": [
          -83.7981811,
          34.4056705
        ]
      },
      {
        "name": "East Hall Community Center",
        "address1": "3911 P Davison Road",
        "city": "Gainesv",
        "zip": "30507",
        "coordinates": [
          -83.7374079,
          34.3184434
        ]
      }
    ]
  },
  {
    "name": "Hancock",
    "id": "70",
    "locations": [
      {
        "name": "Board of Elections Office",
        "address1": "10571 Highway 15 North, Room 106",
        "city": "Sparta",
        "zip": "31087",
        "coordinates": [
          -82.9718073,
          33.2906192
        ]
      }
    ]
  },
  {
    "name": "Haralson",
    "id": "71",
    "locations": [
      {
        "name": "Haralson County Courthouse",
        "address1": "4485 Highway 120 ",
        "city": "Buchanan",
        "zip": "30113",
        "coordinates": [
          -85.1832923,
          33.802667
        ]
      },
      {
        "name": "Buchanan City Hall",
        "address1": "4300 Georgia Hwy 120",
        "city": "Buchanan",
        "zip": "30113",
        "coordinates": [
          -85.1898594,
          33.8026777
        ]
      }
    ]
  },
  {
    "name": "Harris",
    "id": "72",
    "locations": [
      {
        "name": "Courthouse Annex",
        "address1": "104 North College Street",
        "city": "Hamilton",
        "zip": "31811",
        "coordinates": [
          -84.8745025,
          32.7588871
        ]
      }
    ]
  },
  {
    "name": "Hart",
    "id": "73",
    "locations": [
      {
        "name": "Hart County Board of Elections and Registration",
        "address1": "182 Cade Street",
        "address2": "Suite C",
        "city": "Hartwell",
        "zip": "30643",
        "coordinates": [
          -82.9403807,
          34.3465231
        ]
      }
    ]
  },
  {
    "name": "Heard",
    "id": "74",
    "locations": [
      {
        "name": "Heard County Courthouse",
        "address1": "215 East Court Square",
        "address2": "Room #14",
        "city": "Franklin",
        "zip": "30217",
        "coordinates": [
          -85.0980866,
          33.279203
        ]
      },
      {
        "name": "Franklin City Hall",
        "address1": "150 Davis St",
        "city": "Franklin",
        "zip": "30217",
        "coordinates": [
          -85.0991632,
          33.2796167
        ]
      }
    ]
  },
  {
    "name": "Henry",
    "id": "75",
    "locations": [
      {
        "name": "Fortson Library",
        "address1": "61 McDonough St",
        "city": "Hampton",
        "zip": "30228",
        "coordinates": [
          -84.2742336,
          33.3832264
        ]
      },
      {
        "name": "Locust Grove Library",
        "address1": "115 MLK Jr. Blvd.",
        "city": "Locust Grove",
        "zip": "30248",
        "coordinates": [
          -84.108056,
          33.3370359
        ]
      },
      {
        "name": "Elections and Registration",
        "address1": "40 Atlanta St",
        "city": "McDonough",
        "zip": "30253",
        "coordinates": [
          -84.14831,
          33.4487898
        ]
      },
      {
        "name": "Merle Manders Conference Center",
        "address1": "111 Davis Rd",
        "city": "Stockbridge",
        "zip": "30281",
        "coordinates": [
          -84.2362798,
          33.5492815
        ]
      },
      {
        "name": "Fairview Library",
        "address1": "28 Austin Rd",
        "city": "Stockbridge",
        "zip": "30281",
        "coordinates": [
      -84.1866298,
      33.6067239
        ]
      }
    ]
  },
  {
    "name": "Houston",
    "id": "76",
    "locations": [
      {
        "name": "Board of Elections",
        "address1": "801 Main Street, ",
        "city": "Perry",
        "zip": "31069",
        "coordinates": [
          -83.7339299,
          32.4577932
        ]
      },
      {
        "name": "Central Georgia Technical College",
        "address1": "71 Cohen Walker Dr.",
        "city": "Warner Robins",
        "zip": "31088",
        "coordinates": [
          -83.668172,
          32.5457645
        ]
      },
      {
        "name": "Houston Health Pavilion Conference Center",
        "address1": "233 N. Houston Rd.",
        "address2": "BACK OF BUILDING",
        "city": "Warner Robins",
        "zip": "31093",
        "coordinates": [
          -83.6439965,
          32.6196738
        ]
      }
    ]
  },
  {
    "name": "Irwin",
    "id": "77",
    "locations": [
      {
        "name": "Irwin County Annex",
        "address1": "207 South Irwin Ave.",
        "city": "Ocilla",
        "zip": "31774",
        "coordinates": [
          -83.2531077,
          31.592442
        ]
      }
    ]
  },
  {
    "name": "Jackson",
    "id": "78",
    "locations": [
      {
        "name": "Police Court Building",
        "address1": "5040 Highway 53",
        "city": "Braselton ",
        "zip": "30517",
        "coordinates": [
          -83.762328,
          34.1077092
        ]
      },
      {
        "name": "Commerce Parks & Rec",
        "address1": "204 Carson Street",
        "city": "Commerce",
        "zip": "30529",
        "coordinates": [
          -83.4656577,
          34.2102946
        ]
      },
      {
        "name": "Administration Building",
        "address1": "67 Athens Street",
        "city": "Jefferson",
        "zip": "30549",
        "coordinates": [
          -83.5740823,
          34.1161361
        ]
      },
      {
        "name": "The Gordon Street Center",
        "address1": "441 Gordon Street",
        "city": "Jefferson",
        "zip": "30549",
        "coordinates": [
          -83.5681486,
          34.1122577
        ]
      }
    ]
  },
  {
    "name": "Jasper",
    "id": "79",
    "locations": [
      {
        "name": "Registrar's Office",
        "address1": "126 West Greene St",
        "address2": "Suite 3",
        "city": "Monticello",
        "zip": "31064",
        "coordinates": [
          -83.6857497,
          33.304991
        ]
      }
    ]
  },
  {
    "name": "Jeff Davis",
    "id": "80",
    "locations": [
      {
        "name": "Jeff Davis County Courthouse",
        "address1": "14 Jeff Davis Street, Room 106",
        "city": "Hazelhurst",
        "zip": "31539",
        "coordinates": [
          -82.5998984,
          31.8623151
        ]
      }
    ]
  },
  {
    "name": "Jefferson",
    "id": "81",
    "locations": [
      {
        "name": "Jefferson County Elections Office",
        "address1": "415 Green Street",
        "city": "Louisville",
        "zip": "30434",
        "coordinates": [
          -82.4097293,
          32.9983369
        ]
      }
    ]
  },
  {
    "name": "Jenkins",
    "id": "82",
    "locations": [
      {
        "name": "Jenkins County Courthouse",
        "address1": "611 East Winthrop Avenue",
        "city": "Millen",
        "zip": "",
        "coordinates": [
          -81.9428493,
          32.8040271
        ]
      }
    ]
  },
  {
    "name": "Johnson",
    "id": "83",
    "locations": [
      {
        "name": "",
        "address1": "2484 West Elm Street",
        "city": "Wrightsville",
        "zip": "31096",
        "coordinates": [
          -82.7234718,
          32.7294624
        ]
      }
    ]
  },
  {
    "name": "Jones",
    "id": "84",
    "locations": [
      {
        "name": "Jones County Government Center",
        "address1": "166 Industrial Boulevard, Suite 102",
        "city": "Gray",
        "zip": "31032",
        "coordinates": [
          -83.5348979,
          33.0213059
        ]
      }
    ]
  },
  {
    "name": "Lamar",
    "id": "85",
    "locations": [
      {
        "name": "Registrar's Office",
        "address1": "408 Thomaston Street",
        "city": "Barnesville",
        "zip": "30204",
        "coordinates": [
          -84.15761,
          33.0519465
        ]
      }
    ]
  },
  {
    "name": "Lanier",
    "id": "86",
    "locations": [
      {
        "name": "Registrar's Office",
        "address1": "56 W Main Street, Suite 8",
        "city": "Lakeland",
        "zip": "31635",
        "coordinates": [
          -83.0756769,
          31.0415471
        ]
      }
    ]
  },
  {
    "name": "Laurens",
    "id": "87",
    "locations": [
      {
        "name": "Courthouse Annex Building",
        "address1": "117 East Jackson Street",
        "address2": "Suite A ",
        "city": "Dublin",
        "zip": "31021",
        "coordinates": [
          -82.9027357,
          32.5405945
        ]
      }
    ]
  },
  {
    "name": "Lee",
    "id": "88",
    "locations": [
      {
        "name": "Board of Elections and Registraion Office ",
        "address1": "100 Starksville Ave., North, Suite C",
        "city": "Leesburg",
        "zip": "31763",
        "coordinates": [
          -84.1680479,
          31.7319787
        ]
      }
    ]
  },
  {
    "name": "Liberty",
    "id": "89",
    "locations": [
      {
        "name": "",
        "address1": "100 N. Main St. Suite 1600",
        "address2": "Historical Courthouse",
        "city": "Hinesville",
        "zip": "31313",
        "coordinates": [
          -81.5959758,
          31.8477594
        ]
      },
      {
        "name": "liberty County Complex",
        "address1": "9397 E. Oglethorpe Hwy",
        "city": "Midway",
        "zip": "31320",
        "coordinates": [
          -81.4534448,
          31.7984599
        ]
      }
    ]
  },
  {
    "name": "Lincoln",
    "id": "90",
    "locations": [
      {
        "name": "The Lincoln Center",
        "address1": "160 May Avenue",
        "city": "Lincolnton",
        "zip": "",
        "coordinates": [
          -82.4756858,
          33.7873363
        ]
      }
    ]
  },
  {
    "name": "Long",
    "id": "91",
    "locations": [
      {
        "name": "Long County Courthouse",
        "address1": "459  S Mcdonald St",
        "city": "Ludowici",
        "zip": "31316",
        "coordinates": [
          -81.7416053,
          31.7077479
        ]
      }
    ]
  },
  {
    "name": "Lowndes",
    "id": "92",
    "locations": [
      {
        "name": "",
        "address1": "2808 N. Oak Street",
        "city": "Valdosta",
        "zip": "31602",
        "coordinates": [
          -83.2928097,
          30.8703392
        ]
      }
    ]
  },
  {
    "name": "Lumpkin",
    "id": "93",
    "locations": [
      {
        "name": "Lumpkin County Elections Office",
        "address1": "56 Short Street",
        "city": "Dahlonega",
        "zip": "30533",
        "coordinates": [
          -83.9815938,
          34.5346124
        ]
      }
    ]
  },
  {
    "name": "Macon",
    "id": "94",
    "locations": [
      {
        "name": "Macon County Annex Building",
        "address1": "100 Macon St",
        "city": "Oglethorpe",
        "zip": "31068",
        "coordinates": [
          -84.0596167,
          32.2951731
        ]
      }
    ]
  },
  {
    "name": "Madison",
    "id": "95",
    "locations": [
      {
        "name": "Board of Elections' Office",
        "address1": "94 Spring Lake Dr",
        "city": "Danielsville",
        "zip": "30633",
        "coordinates": [
          -83.221392,
          34.1242607
        ]
      }
    ]
  },
  {
    "name": "Marion",
    "id": "96",
    "locations": [
      {
        "name": "Board of Elections & Registration",
        "address1": "100 E Burkhalter Av",
        "city": "Buena Vista",
        "zip": "31803",
        "coordinates": [
          -84.5200494,
          32.3230741
        ]
      }
    ]
  },
  {
    "name": "McDuffie",
    "id": "97",
    "locations": [
      {
        "name": "Old Dearing School Gym",
        "address1": "4683 Augusta Hwy",
        "city": "Dearing",
        "zip": "30808",
        "coordinates": [
          -82.381476,
          33.4126087
        ]
      },
      {
        "name": "Board of Elections Office",
        "address1": "Old Historic Courthouse",
        "address2": "337 Main Street, Suite 101",
        "city": "Thomson",
        "zip": "30824",
        "coordinates": [
          -82.5051447,
          33.4696768
        ]
      },
      {
        "name": "Precinct On Main",
        "address1": "(Old THS Gym)",
        "address2": "511 Main St (Across",
        "city": "Thomson",
        "zip": "30824",
        "coordinates": [
          -82.5062374,
          33.4721132
        ]
      }
    ]
  },
  {
    "name": "McIntosh",
    "id": "98",
    "locations": [
      {
        "name": "",
        "address1": "103 Jefferson Street",
        "city": "Darien",
        "zip": "",
        "coordinates": [
          -81.4337918,
          31.3714483
        ]
      }
    ]
  },
  {
    "name": "Meriwether",
    "id": "99",
    "locations": [
      {
        "name": "",
        "address1": "137 S. Court Square",
        "city": "Greenville",
        "zip": "",
        "coordinates": [
          -84.7133508,
          33.0282743
        ]
      },
      {
        "name": "",
        "address1": "104 Wortham Rd",
        "city": "Luthersville",
        "zip": "30251",
        "coordinates": [
          -84.7391849,
          33.2063396
        ]
      },
      {
        "name": "",
        "address1": "30 Durand St",
        "city": "Woodbury",
        "zip": "30293",
        "coordinates": [
          -84.5799575,
          32.9801694
        ]
      }
    ]
  },
  {
    "name": "Miller",
    "id": "100",
    "locations": [
      {
        "name": "Miller County Courthouse",
        "address1": "Registrar's Office, Room 113",
        "address2": "155 S. First Street",
        "city": "Colquitt",
        "zip": "39837",
        "coordinates": [
          -84.7334767,
          31.1734979
        ]
      }
    ]
  },
  {
    "name": "Mitchell",
    "id": "101",
    "locations": [
      {
        "name": "Jackson House",
        "address1": "33 East Walton St",
        "city": "Baconton",
        "zip": "31716",
        "coordinates": [
          -84.1646378,
          31.3766279
        ]
      },
      {
        "name": "Mitchell County Courthouse",
        "address1": "11 W. Broad Street, Room 101",
        "city": "Camilla",
        "zip": "31730",
        "coordinates": [
          -84.2092518,
          31.2316098
        ]
      },
      {
        "name": "City Hall Building",
        "address1": "30 East Broad St",
        "city": "Camilla",
        "zip": "31730",
        "coordinates": [
          -84.2099333,
          31.2311065
        ]
      },
      {
        "name": "City Hall Complex",
        "address1": "415 W Railroad St S",
        "city": "Pelham",
        "zip": "31779",
        "coordinates": [
          -84.1534164,
          31.1189065
        ]
      }
    ]
  },
  {
    "name": "Monroe",
    "id": "102",
    "locations": [
      {
        "name": "Monroe County Board of Registration",
        "address1": "38 West Main Street",
        "address2": "P.O. Box 1245",
        "city": "Forsyth",
        "zip": "31029",
        "coordinates": [
          -83.9396829,
          33.0339594
        ]
      }
    ]
  },
  {
    "name": "Montgomery",
    "id": "103",
    "locations": [
      {
        "name": "Montgomery County Courthouse",
        "address1": "400 S. Railroad Ave",
        "city": "Mount Vernon",
        "zip": "30445",
        "coordinates": [
          -82.5952778,
          32.1745182
        ]
      }
    ]
  },
  {
    "name": "Morgan",
    "id": "104",
    "locations": [
      {
        "name": "",
        "address1": "434 Hancock Street",
        "city": "Madison",
        "zip": "30650",
        "coordinates": [
          -83.4641944,
          33.5973939
        ]
      }
    ]
  },
  {
    "name": "Murray",
    "id": "105",
    "locations": [
      {
        "name": "Courthouse Annex",
        "address1": "121 N 4th Ave",
        "city": "Chatsworth",
        "zip": "30705",
        "coordinates": [
          -84.7712948,
          34.7663957
        ]
      },
      {
        "name": "Chatsworth City Hall",
        "address1": "400 N 3rd Ave",
        "city": "Chatsworth",
        "zip": "30705",
        "coordinates": [
          -84.7692956,
          34.7707831
        ]
      },
      {
        "name": "Eton City Hall",
        "address1": "3464 Highway 411 N",
        "city": "Chatsworth",
        "zip": "30705",
        "coordinates": [
          -84.7479931,
          34.7218181
        ]
      }
    ]
  },
  {
    "name": "Muscogee",
    "id": "106",
    "locations": [
      {
        "name": "City Services Center",
        "address1": "3111 Citizens Way",
        "city": "Columbus",
        "zip": "31906",
        "coordinates": [
          -84.9458759,
          32.476857
        ]
      }
    ]
  },
  {
    "name": "Newton",
    "id": "107",
    "locations": [
      {
        "name": "Newton County Administration Building",
        "address1": "1113 Usher Street",
        "city": "Covington",
        "zip": "30014",
        "coordinates": [
          -83.859156,
          33.5977453
        ]
      },
      {
        "name": "Porter Memorial Branch Library",
        "address1": "6191 Highway 212",
        "city": "Covington",
        "zip": "30016",
        "coordinates": [
          -84.0045568,
          33.5263208
        ]
      }
    ]
  },
  {
    "name": "Oconee",
    "id": "108",
    "locations": [
      {
        "name": "Oconee County Elections Office",
        "address1": "10 Court Street ",
        "city": "Watkinsville",
        "zip": "30677",
        "coordinates": [
          -83.409687,
          33.8634213
        ]
      },
      {
        "name": "Oconee County Civic Center",
        "address1": "2661 Hog Mountain Road",
        "city": "Watkinsville",
        "zip": "30677",
        "coordinates": [
          -83.4546046,
          33.8633609
        ]
      }
    ]
  },
  {
    "name": "Oglethorpe",
    "id": "109",
    "locations": [
      {
        "name": "City of Crawford City Hall",
        "address1": "148 S Broad St",
        "city": "Crawford",
        "zip": "30630",
        "coordinates": [
          -83.1567286,
          33.8807184
        ]
      },
      {
        "name": "Multi-Purpose Building (Lower Level)",
        "address1": "109 East Boggs Street",
        "city": "Lexington",
        "zip": "30648",
        "coordinates": [
          -83.1114724,
          33.8681503
        ]
      }
    ]
  },
  {
    "name": "Paulding",
    "id": "110",
    "locations": [
      {
        "name": "Board of Elections and Registration",
        "address1": "Watson Government Complex, First Floor",
        "address2": "240 Constitution Blvd.",
        "city": "Dallas",
        "zip": "30132",
        "coordinates": [
          -84.847128,
          33.917349
        ]
      },
      {
        "name": "Burnt Hickory Park",
        "address1": "8650 Cartersville Hwy",
        "city": "Dallas",
        "zip": "30132",
        "coordinates": [
          -84.8415947,
          34.0352083
        ]
      },
      {
        "name": "Mt. Tabor Park",
        "address1": "1550 East Paulding Dr",
        "city": "Dallas",
        "zip": "30157",
        "coordinates": [
          -84.7708603,
          33.9436681
        ]
      },
      {
        "name": "Poplar Springs Baptist Church",
        "address1": "2056 Hiram Douglasville Hwy",
        "city": "Hiram",
        "zip": "30141",
        "coordinates": [
          -84.7629309,
          33.8634053
        ]
      }
    ]
  },
  {
    "name": "Peach",
    "id": "111",
    "locations": [
      {
        "name": "Byron Municipal Complex",
        "address1": "401 Main St",
        "city": "Byron",
        "zip": "31008",
        "coordinates": [
          -83.7642531,
          32.6541581
        ]
      },
      {
        "name": "Peach County Courthouse Annex",
        "address1": "205 West Church Street, Suite 102",
        "city": "Fort Valley",
        "zip": "",
        "coordinates": [
          -83.8903224,
          32.5534576
        ]
      }
    ]
  },
  {
    "name": "Pickens",
    "id": "112",
    "locations": [
      {
        "name": "",
        "address1": "83 Pioneer Rd",
        "city": "Jasper",
        "zip": "30143",
        "coordinates": [
          -84.427565,
          34.4706111
        ]
      }
    ]
  },
  {
    "name": "Pierce",
    "id": "113",
    "locations": [
      {
        "name": "",
        "address1": "312 Nichols Street, Suite 2",
        "city": "Blackshear",
        "zip": "31516",
        "coordinates": [
          -82.2360831,
          31.3037314
        ]
      }
    ]
  },
  {
    "name": "Pike",
    "id": "114",
    "locations": [
      {
        "name": "Pike County Courthouse",
        "address1": "16001 Barnesville Street",
        "city": "Zebulon",
        "zip": "30295",
        "coordinates": [
          -84.3421979,
          33.1020995
        ]
      }
    ]
  },
  {
    "name": "Polk",
    "id": "115",
    "locations": [
      {
        "name": "Board of Elections and Registration",
        "address1": "144 West Avenue, Suite D",
        "city": "Cedartown",
        "zip": "30125",
        "coordinates": [
          -85.2587035,
          34.0114516
        ]
      },
      {
        "name": "Nathan Dean Comm. Center",
        "address1": "436 Hogue Ave",
        "city": "Rockmart",
        "zip": "30153",
        "coordinates": [
          -85.042989,
          34.0016421
        ]
      }
    ]
  },
  {
    "name": "Pulaski",
    "id": "116",
    "locations": [
      {
        "name": "Courthouse Annex",
        "address1": "45 S. Lumpkin Street",
        "city": "Hawkinsville",
        "zip": "",
        "coordinates": [
          -83.4686983,
          32.2818876
        ]
      }
    ]
  },
  {
    "name": "Putnam",
    "id": "117",
    "locations": [
      {
        "name": "Putnam County Board of Elections & Registration",
        "address1": "100 South Jefferson Avenue, Suite 217",
        "city": "Eatonton",
        "zip": "31024",
        "coordinates": [
          -83.3889463,
          33.3258003
        ]
      },
      {
        "name": "Putnam County Administration Building",
        "address1": "117 Putnam Drive",
        "city": "Eatonton",
        "zip": "31024",
        "coordinates": [
          -83.3845119,
          33.3268334
        ]
      },
      {
        "name": "Eatonton City Hall",
        "address1": "201 N. Jefferson Ave.",
        "city": "Eatonton",
        "zip": "31024",
        "coordinates": [
          -83.3896301,
          33.3278287
        ]
      }
    ]
  },
  {
    "name": "Quitman",
    "id": "118",
    "locations": [
      {
        "name": "Quitman County Court House",
        "address1": "111 main St.",
        "city": "Georgetown",
        "zip": "39854",
        "coordinates": [
          -85.1089458,
          31.8863309
        ]
      }
    ]
  },
  {
    "name": "Rabun",
    "id": "119",
    "locations": [
      {
        "name": "Rabun County Elections and Registration Office",
        "address1": "19 Jo Dotson Circle, Suite 201",
        "city": "Clayton",
        "zip": "30525",
        "coordinates": [
          -83.4005251,
          34.8800918
        ]
      },
      {
        "name": "City of Sky Valley",
        "address1": "3444 Highway 246",
        "city": "Sky Valley",
        "zip": "30537",
        "coordinates": [
          -83.3440107,
          34.9925098
        ]
      },
      {
        "name": "Town of Tallulah Falls",
        "address1": "255 Main St.",
        "city": "Tallulah Falls",
        "zip": "30573",
        "coordinates": [
          -83.4169174,
          34.784078
        ]
      }
    ]
  },
  {
    "name": "Randolph",
    "id": "120",
    "locations": [
      {
        "name": "Randolph Elections and REgistration",
        "address1": "Randolph County Government Center",
        "address2": "93 Front Street",
        "city": "Cuthbert",
        "zip": "39840",
        "coordinates": [
          -84.7900232,
          31.7664383
        ]
      }
    ]
  },
  {
    "name": "Richmond",
    "id": "121",
    "locations": [
      {
        "name": "Board of Elections",
        "address1": "535 Telfair Street",
        "city": "Augusta",
        "zip": "30901",
        "coordinates": [
          -81.9614282,
          33.4704752
        ]
      },
      {
        "name": "Henry H. Brigham Community Center",
        "address1": "2463 Golden Camp Road",
        "city": "Augusta",
        "zip": "30906",
        "coordinates": [
          -82.0518718,
          33.4300207
        ]
      },
      {
        "name": "Warren Road Community Center",
        "address1": "300 Warren Road",
        "city": "Augusta",
        "zip": "30907",
        "coordinates": [
          -82.0578505,
          33.506207
        ]
      },
      {
        "name": "Diamond Lakes Regional Park",
        "address1": "4335 Windsor Spring Road",
        "city": "Hephzibah",
        "zip": "30815",
        "coordinates": [
          -82.090353,
          33.3532552
        ]
      }
    ]
  },
  {
    "name": "Rockdale",
    "id": "122",
    "locations": [
      {
        "name": "",
        "address1": "1400 Parker Road, Lobby C",
        "city": "Conyers",
        "zip": "30094",
        "coordinates": [
          -84.019312,
          33.6527187
        ]
      }
    ]
  },
  {
    "name": "Schley",
    "id": "123",
    "locations": [
      {
        "name": "SchleyCounty Courthouse Annex",
        "address1": "Registrar's Office",
        "address2": "47 North Pecan St",
        "city": "Ellaville",
        "zip": "31806",
        "coordinates": [
          -84.3127992,
          32.2378028
        ]
      }
    ]
  },
  {
    "name": "Screven",
    "id": "124",
    "locations": [
      {
        "name": "Screven County Courthouse",
        "address1": "216 Mims Road, Room 114 ",
        "city": "Sylvania",
        "zip": "30467",
        "coordinates": [
          -81.6460383,
          32.7501557
        ]
      }
    ]
  },
  {
    "name": "Seminole",
    "id": "125",
    "locations": [
      {
        "name": "Seminole County Courthouse",
        "address1": "Probate and Magistrate Court Office",
        "address2": "200 South Knox Avenue",
        "city": "Donalsonville",
        "zip": "39845",
        "coordinates": [
          -84.8849667,
          31.0418354
        ]
      }
    ]
  },
  {
    "name": "Spalding",
    "id": "126",
    "locations": [
      {
        "name": "Memorial Drive Plaza",
        "address1": "825 Memorial Drive",
        "city": "Griffin",
        "zip": "30224",
        "coordinates": [
          -84.2501949,
          33.242814
        ]
      }
    ]
  },
  {
    "name": "Stephens",
    "id": "127",
    "locations": [
      {
        "name": "Stephens County Courthouse Annex",
        "address1": "40 East Tugalo, Suite 250",
        "city": "Toccoa",
        "zip": "30577",
        "coordinates": [
          -83.3332395,
          34.5799653
        ]
      },
      {
        "name": "Stephens County Registrar Office",
        "address1": "12 West Tugalo Street",
        "address2": "Suite 250",
        "city": "Toccoa",
        "zip": "30577",
        "coordinates": [
          -83.3342991,
          34.5799265
        ]
      }
    ]
  },
  {
    "name": "Stewart",
    "id": "128",
    "locations": [
      {
        "name": "",
        "address1": "1764 Broad Street",
        "city": "Lumpkin",
        "zip": "31815",
        "coordinates": [
          -84.7954299,
          32.0510332
        ]
      }
    ]
  },
  {
    "name": "Sumter",
    "id": "129",
    "locations": [
      {
        "name": "Sumter County Courthouse",
        "address1": "500 West Lamar Street Suite 110",
        "address2": "Voter Registration Office",
        "city": "Americus",
        "zip": "31709",
        "coordinates": [
          -84.2396085,
          32.0718439
        ]
      }
    ]
  },
  {
    "name": "Talbot",
    "id": "130",
    "locations": [
      {
        "name": "Talbot County  Board of Elections and Reg.",
        "address1": "141 N. Jefferson Av",
        "city": "Talbotton",
        "zip": "31827",
        "coordinates": [
          -84.5414374,
          32.679656
        ]
      }
    ]
  },
  {
    "name": "Taliaferro",
    "id": "131",
    "locations": [
      {
        "name": "Taliaferro County Courthouse",
        "address1": "113 Monument Street",
        "city": "Crawfordville",
        "zip": "",
        "coordinates": [
          -82.8966592,
          33.5546265
        ]
      }
    ]
  },
  {
    "name": "Tattnall",
    "id": "132",
    "locations": [
      {
        "name": "Cobbtown City Hall",
        "address1": "36519B Ga Highway 23",
        "city": "Cobbtown",
        "zip": "30420",
        "coordinates": [
          -82.1313353,
          32.2977255
        ]
      },
      {
        "name": "Old Collins Gym",
        "address1": "509 N.W. Williams St.",
        "city": "Collins",
        "zip": "30421",
        "coordinates": [
          -82.1136153,
          32.181167
        ]
      },
      {
        "name": "Southeastern Technical School",
        "address1": "211 S Tillman Street",
        "city": "Glennville",
        "zip": "30427",
        "coordinates": [
          -81.9270575,
          31.9328828
        ]
      },
      {
        "name": "Tattnall County Board of Elections and Registration",
        "address1": "114 West Brazell Street",
        "city": "Reidsville",
        "zip": "",
        "coordinates": [
          -82.1190871,
          32.0862309
        ]
      }
    ]
  },
  {
    "name": "Taylor",
    "id": "133",
    "locations": [
      {
        "name": "Taylor County Voter Registrar",
        "address1": "1B Ivy Street",
        "city": "Butler",
        "zip": "31006",
        "coordinates": [
          -84.2374615,
          32.5561052
        ]
      },
      {
        "name": "Reynolds City Hall",
        "address1": "3 E. William Wainwright Street",
        "city": "Reynolds",
        "zip": "31076",
        "coordinates": [
          -84.0969587,
          32.5598071
        ]
      }
    ]
  },
  {
    "name": "Telfair",
    "id": "134",
    "locations": [
      {
        "name": "City of Lumber City City Hall",
        "address1": "301 Main St",
        "city": "Lumber City",
        "zip": "31549",
        "coordinates": [
          -82.6863151,
          31.9299823
        ]
      },
      {
        "name": "",
        "address1": "91 Telfair Avenue",
        "address2": "Suite H",
        "city": "McRae",
        "zip": "31055",
        "coordinates": [
          -82.8967552,
          32.0660772
        ]
      },
      {
        "name": "City of McRae Helena City Hall",
        "address1": "25 S First Avenue",
        "city": "McRae Helena",
        "zip": "31055",
        "coordinates": [
          -82.8979883,
          32.0685634
        ]
      },
      {
        "name": "City of Scotland City Hall",
        "address1": "969 Main Street",
        "city": "Scotland",
        "zip": "31083",
        "coordinates": [
          -82.8179691,
          32.0479837
        ]
      }
    ]
  },
  {
    "name": "Terrell",
    "id": "135",
    "locations": [
      {
        "name": "Government Building",
        "address1": "Board of Elections and Registration",
        "address2": "955 Forrester Drive SE",
        "city": "Dawson",
        "zip": "39842",
        "coordinates": [
          -84.4367007,
          31.7611471
        ]
      }
    ]
  },
  {
    "name": "Thomas",
    "id": "136",
    "locations": [
      {
        "name": "Board of Elections",
        "address1": "325 N. Madison St.",
        "city": "Thomasville",
        "zip": "31792",
        "coordinates": [
          -83.9834827,
          30.8389602
        ]
      }
    ]
  },
  {
    "name": "Tift",
    "id": "137",
    "locations": [
      {
        "name": "Board of Elections and Registration",
        "address1": "222 Chestnut Avenue",
        "city": "Tifton",
        "zip": "",
        "coordinates": [
          -83.5059859,
          31.4550791
        ]
      }
    ]
  },
  {
    "name": "Toombs",
    "id": "138",
    "locations": [
      {
        "name": "",
        "address1": "125 W Lincoln Ave",
        "city": "Lyons",
        "zip": "30436",
        "coordinates": [
          
        ]
      }
    ]
  },
  {
    "name": "Towns",
    "id": "139",
    "locations": [
      {
        "name": "Towns County Registrars Office",
        "address1": "Old Rock Jail",
        "address2": "48 River Street, Suite 30",
        "city": "Hiawassee",
        "zip": "30546",
        "coordinates": [
          -83.7571592,
          34.9475965
        ]
      }
    ]
  },
  {
    "name": "Treutlen",
    "id": "140",
    "locations": [
      {
        "name": "Annex Building ",
        "address1": "650 Second Street South",
        "city": "Soperton",
        "zip": "30457",
        "coordinates": [
          -82.592683,
          32.3767822
        ]
      }
    ]
  },
  {
    "name": "Troup",
    "id": "141",
    "locations": [
      {
        "name": "Elections and Registration Office",
        "address1": "100 Ridley Avenue",
        "address2": "Suite 1100",
        "city": "LaGrange",
        "zip": "30240",
        "coordinates": [
          -85.0307623,
          33.0401901
        ]
      }
    ]
  },
  {
    "name": "Turner",
    "id": "142",
    "locations": [
      {
        "name": "Turner Co. Bd. of Elections & Registration",
        "address1": "1807 US Highway 41 South",
        "city": "Sycamore",
        "zip": "31790",
        "coordinates": [
          -83.6392364,
          31.6774838
        ]
      }
    ]
  },
  {
    "name": "Twiggs",
    "id": "143",
    "locations": [
      {
        "name": "County Courthouse",
        "address1": "425 Railroad Street N",
        "city": "Jeffersonville",
        "zip": "",
        "coordinates": [
          -83.3272497,
          32.6708444
        ]
      }
    ]
  },
  {
    "name": "Union",
    "id": "144",
    "locations": [
      {
        "name": "Union County Courthouse",
        "address1": "65 Courthouse St",
        "city": "Blairsville",
        "zip": "30512",
        "coordinates": [
          -83.9607834,
          34.878533
        ]
      },
      {
        "name": "Blairsville City Hall",
        "address1": "64 Blue Ridge St",
        "city": "Blairsville",
        "zip": "30512",
        "coordinates": [
          -83.9596908,
          34.8753589
        ]
      }
    ]
  },
  {
    "name": "Upson",
    "id": "145",
    "locations": [
      {
        "name": "The CivicCenter",
        "address1": "101 Civic Center Dr.",
        "city": "Thomaston",
        "zip": "30286",
        "coordinates": [
          -84.3100886,
          32.8856028
        ]
      }
    ]
  },
  {
    "name": "Walker",
    "id": "146",
    "locations": [
      {
        "name": "Chickamauga",
        "address1": "1817 Lee Clarkson Rd",
        "city": "Chickamauga",
        "zip": "30707",
        "coordinates": [
          -85.2851461,
          34.8636789
        ]
      },
      {
        "name": "Courthouse",
        "address1": "103 S. Duke St",
        "city": "LaFayette",
        "zip": "30728",
        "coordinates": [
          -85.280673,
          34.7044171
        ]
      },
      {
        "name": "Fairyland",
        "address1": "1214 Lula Lake Rd",
        "city": "Lookout Mountain",
        "zip": "30750",
        "coordinates": [
          -85.358081,
          34.9778504
        ]
      },
      {
        "name": "Rock Spring",
        "address1": "265 Bicentennial Trail",
        "address2": "Building 500 Student Center",
        "city": "Rock Spring",
        "zip": "30739",
        "coordinates": [
          -85.2460525,
          34.80951
        ]
      },
      {
        "name": "Rossville",
        "address1": "400 McFarland Ave",
        "city": "Rossville",
        "zip": "30741",
        "coordinates": [
          -85.2885424,
          34.9814506
        ]
      }
    ]
  },
  {
    "name": "Walton",
    "id": "147",
    "locations": [
      {
        "name": "Walton County Elections Office",
        "address1": "303 S. Hammond Drive",
        "city": "Monroe",
        "zip": "30655",
        "coordinates": [
          -83.6989342,
          33.7977874
        ]
      }
    ]
  },
  {
    "name": "Ware",
    "id": "148",
    "locations": [
      {
        "name": "",
        "address1": "408 Tebeau Street",
        "city": "Wayross",
        "zip": "31501",
        "coordinates": [
          -82.3611743,
          31.2108255
        ]
      },
      {
        "name": "Board of Elections and Registration Office, Ware County Courthouse",
        "address1": "800 Church Street",
        "city": "Waycross",
        "zip": "31501",
        "coordinates": [
          -82.3576126,
          31.2144741
        ]
      }
    ]
  },
  {
    "name": "Warren",
    "id": "149",
    "locations": [
      {
        "name": "Norwood City Hall",
        "address1": "14 Railroad St",
        "city": "Norwood",
        "zip": "30821",
        "coordinates": [
          -82.7065872,
          33.4631195
        ]
      },
      {
        "name": "Community Service Building",
        "address1": "48 Warren Street",
        "city": "Warrenton",
        "zip": "30828",
        "coordinates": [
          -82.6622855,
          33.4074413
        ]
      },
      {
        "name": "Warrenton City Hall",
        "address1": "29 Edward D Ricketson St",
        "city": "Warrenton",
        "zip": "30828",
        "coordinates": [
          -82.6623771,
          33.4049419
        ]
      }
    ]
  },
  {
    "name": "Washington",
    "id": "150",
    "locations": [
      {
        "name": "Washington County Courthouse",
        "address1": "Registrar's Office",
        "address2": "132 W. Haynes Street",
        "city": "Sandersville",
        "zip": "31082",
        "coordinates": [
          -82.8117329,
          32.9834975
        ]
      }
    ]
  },
  {
    "name": "Wayne",
    "id": "151",
    "locations": [
      {
        "name": "Wayne County Courthouse",
        "address1": "Registrar's Office",
        "address2": "174 North Brunswick Street",
        "city": "Jesup",
        "zip": "31546",
        "coordinates": [
          -81.8801091,
          31.6041828
        ]
      }
    ]
  },
  {
    "name": "Webster",
    "id": "152",
    "locations": [
      {
        "name": "Webster County Board of Elections and Registration",
        "address1": "6622 Cass Street",
        "city": "Preston",
        "zip": "31824",
        "coordinates": [
          -84.5368402,
          32.0673085
        ]
      }
    ]
  },
  {
    "name": "Wheeler",
    "id": "153",
    "locations": [
      {
        "name": "",
        "address1": "16 W Forest Ave",
        "city": "Alamo",
        "zip": "30411",
        "coordinates": [
          -82.7825181,
          32.1494342
        ]
      }
    ]
  },
  {
    "name": "White",
    "id": "154",
    "locations": [
      {
        "name": "",
        "address1": "1241 Helen Hwy ",
        "address2": "Suite 210-A",
        "city": "Cleveland",
        "zip": "30528",
        "coordinates": [
          -83.7550038,
          34.61811
        ]
      },
      {
        "name": "Cleveland City Hall",
        "address1": "85 S. Main St.",
        "city": "Cleveland",
        "zip": "30528",
        "coordinates": [
          -83.7628785,
          34.5954362
        ]
      },
      {
        "name": "Helen City Hall",
        "address1": "25 Alpenrosen Strasse",
        "city": "Helen",
        "zip": "30545",
        "coordinates": [
          -83.7255342,
          34.6996206
        ]
      }
    ]
  },
  {
    "name": "Whitfield",
    "id": "155",
    "locations": [
      {
        "name": "Registrar's Office",
        "address1": "205 N. Selvidge Street, Suite K",
        "city": "Dalton",
        "zip": "30720",
        "coordinates": [
          -84.9714324,
          34.7724927
        ]
      }
    ]
  },
  {
    "name": "Wilcox",
    "id": "156",
    "locations": [
      {
        "name": "Wilcox County Board of Elections Office",
        "address1": "377 College Street",
        "city": "Abbeville",
        "zip": "31001",
        "coordinates": [
          -83.3136643,
          31.9909785
        ]
      }
    ]
  },
  {
    "name": "Wilkes",
    "id": "157",
    "locations": [
      {
        "name": "Wilkes County Courthouse",
        "address1": "23 Court Street, Room 113",
        "city": "Washington",
        "zip": "30673-1570",
        "coordinates": [
          -82.7389658,
          33.7382642
        ]
      }
    ]
  },
  {
    "name": "Wilkinson",
    "id": "158",
    "locations": [
      {
        "name": "Wilkinson County Courthouse",
        "address1": "100 Bacon Street",
        "address2": "Room 133",
        "city": "Irwinton",
        "zip": "31042",
        "coordinates": [
          -83.173986,
          32.8107116
        ]
      }
    ]
  },
  {
    "name": "Worth",
    "id": "159",
    "locations": [
      {
        "name": "Worth County Courthouse",
        "address1": "Voter Registration & Board of Elections",
        "address2": "201 North Main Street, Room 10",
        "city": "Sylvester",
        "zip": "31791",
        "coordinates": [
          -83.8361921,
          31.5279619
        ]
      }
    ]
  }
]